{"_comment": "Trimmed OSM Overpass extract (places + named waterways) for the three counties. © OpenStreetMap contributors, ODbL. bbox 32.16,111.45,33.62,112.62.", "elements": [{"type": "node", "id": 900191631, "tags": {"capital": "8", "name": "汉城街道", "name:en": "Hancheng", "name:vi": "Thành Quan", "name:zh": "汉城街道", "name:zh-Hans": "汉城街道", "name:zh-Hant": "漢城街道", "name:zh-Latn-pinyin": "Hànchéng Jiēdào", "official_name": "汉城街道", "official_name:en": "Hancheng Subdistrict", "official_name:zh": "汉城街道", "old_name": "城关;城关镇;新野城关镇", "old_name:en": "Chengguan", "old_name:zh": "城关;城关镇;新野城关镇", "place": "town", "place:CN": "subdistrict", "short_name": "汉城", "wikidata": "Q11133194", "wikipedia": "zh:汉城街道 (新野县)"}, "lon": 112.3608119, "lat": 32.5125875, "center": null}, {"type": "node", "id": 1589812248, "tags": {"capital": "8", "name": "穰东镇", "name:en": "Rangdong", "name:vi": "Nhương Đông", "name:zh": "穰东镇", "name:zh-Hans": "穰东镇", "name:zh-Hant": "穰東鎮", "name:zh-Latn-pinyin": "Rángdōng Zhèn", "official_name": "穰东镇", "place": "town", "place:CN": "town", "short_name": "穰东", "source:name": "GNS", "wikidata": "Q13916759", "wikipedia": "zh:穰东镇"}, "lon": 112.2869964, "lat": 32.8552106, "center": null}, {"type": "node", "id": 2326869287, "tags": {"capital": "8", "name": "七里坪乡", "name:en": "Qiliping", "name:zh": "七里坪乡", "name:zh-Hans": "七里坪乡", "name:zh-Hant": "七里坪鄉", "name:zh-Latn-pinyin": "Qīlǐpíng Xiāng", "official_name": "七里坪乡", "place": "town", "place:CN": "township", "short_name": "七里坪", "wikidata": "Q10864785", "wikipedia": "zh:七里坪乡"}, "lon": 111.8473107, "lat": 33.3248352, "center": null}, {"type": "node", "id": 2338869221, "tags": {"capital": "8", "name": "板场乡", "name:en": "Banchang", "name:zh": "板场乡", "name:zh-Hans": "板场乡", "name:zh-Hant": "板場鄉", "name:zh-Latn-pinyin": "Bǎnchǎng Xiāng", "official_name": "板场乡", "place": "town", "place:CN": "township", "short_name": "板场", "wikidata": "Q11104965", "wikipedia": "zh:板场乡 (内乡县)"}, "lon": 111.7154874, "lat": 33.4036649, "center": null}, {"type": "node", "id": 2338869222, "tags": {"capital": "8", "name": "夏馆镇", "name:en": "Xiaguan", "name:zh": "夏馆镇", "name:zh-Hans": "夏馆镇", "name:zh-Hant": "夏館鎮", "name:zh-Latn-pinyin": "Xiàguǎn Zhèn", "official_name": "夏馆镇", "place": "town", "place:CN": "town", "short_name": "夏馆", "wikidata": "Q10932228", "wikipedia": "zh:夏馆镇"}, "lon": 111.783839, "lat": 33.3663097, "center": null}, {"type": "node", "id": 3458645808, "tags": {"alt_name:en": "Chang-ts'un;Chang-ts'un-wa", "capital": "8", "name": "张村镇", "name:en": "Zhangcun", "name:zh": "张村镇", "name:zh-Hans": "张村镇", "name:zh-Hant": "張村鎮", "name:zh-Latn-pinyin": "Zhāngcūn Zhèn", "official_name": "张村镇", "place": "town", "place:CN": "town", "short_name": "张村", "source:name": "GNS", "wikidata": "Q11067246", "wikipedia": "zh:张村镇 (邓州市)"}, "lon": 111.9088943, "lat": 32.842716, "center": null}, {"type": "node", "id": 3458646196, "tags": {"alt_name:en": "Shih-kang;Shih-chia-kang", "capital": "8", "name": "师岗镇", "name:en": "Shigang", "name:zh": "师岗镇", "name:zh-Hans": "师岗镇", "name:zh-Hant": "師崗鎮", "name:zh-Latn-pinyin": "Shīgǎng Zhèn", "official_name": "师岗镇", "place": "town", "place:CN": "town", "short_name": "师岗", "source:name": "GNS", "wikidata": "Q11059816", "wikipedia": "zh:师岗镇"}, "lon": 111.7732988, "lat": 32.9317851, "center": null}, {"type": "node", "id": 3459060228, "tags": {"capital": "8", "name": "十林镇", "name:en": "Shilin", "name:zh": "十林镇", "name:zh-Hans": "十林镇", "name:zh-Hant": "十林鎮", "name:zh-Latn-pinyin": "Shílín Zhèn", "official_name": "十林镇", "place": "town", "place:CN": "town", "short_name": "十林", "source:name": "GNS", "wikidata": "Q10904652", "wikipedia": "zh:十林镇"}, "lon": 111.8836014, "lat": 32.9041232, "center": null}, {"type": "node", "id": 3459060230, "tags": {"capital": "8", "name": "罗庄镇", "name:en": "Luozhuang", "name:zh": "罗庄镇", "name:zh-Hans": "罗庄镇", "name:zh-Hant": "羅莊鎮", "name:zh-Latn-pinyin": "Luózhuāng Zhèn", "official_name": "罗庄镇", "place": "town", "place:CN": "town", "short_name": "罗庄", "source:name": "GNS", "wikidata": "Q13916496", "wikipedia": "zh:罗庄镇 (邓州市)"}, "lon": 111.9162691, "lat": 32.9686151, "center": null}, {"type": "node", "id": 3459061493, "tags": {"capital": "8", "name": "王店镇", "name:en": "Wangdian", "name:zh": "王店镇", "name:zh-Hans": "王店镇", "name:zh-Hant": "王店鎮", "name:zh-Latn-pinyin": "Wángdiàn Zhèn", "official_name": "王店镇", "place": "town", "place:CN": "town", "short_name": "王店", "source:name": "GNS", "wikidata": "Q13889572", "wikipedia": "zh:王店镇 (内乡县)"}, "lon": 111.951622, "lat": 33.1334025, "center": null}, {"type": "node", "id": 3459061508, "tags": {"capital": "8", "name": "马山口镇", "name:en": "Mashankou", "name:zh": "马山口镇", "name:zh-Hans": "马山口镇", "name:zh-Hant": "馬山口鎮", "name:zh-Latn-pinyin": "Mǎshānkǒu Zhèn", "official_name": "马山口镇", "place": "town", "place:CN": "town", "short_name": "马山口", "source:name": "GNS", "wikidata": "Q13889047", "wikipedia": "zh:马山口镇"}, "lon": 112.0026808, "lat": 33.2081802, "center": null}, {"type": "node", "id": 3634071839, "tags": {"capital": "8", "name": "王集镇", "name:en": "Wangji", "name:zh": "王集镇", "name:zh-Hans": "王集镇", "name:zh-Hant": "王集鎮", "name:zh-Latn-pinyin": "Wángjí Zhèn", "official_name": "王集镇", "old_name": "王集乡", "place": "town", "place:CN": "town", "short_name": "王集", "source:name": "GNS", "wikidata": "Q13914653", "wikipedia": "zh:王集镇 (新野县)"}, "lon": 112.3007005, "lat": 32.618899, "center": null}, {"type": "node", "id": 3681621320, "tags": {"capital": "8", "name": "王庄镇", "name:en": "Wangzhuang", "name:zh": "王庄镇", "name:zh-Hans": "王庄镇", "name:zh-Hant": "王莊鎮", "name:zh-Latn-pinyin": "Wángzhuāng Zhèn", "official_name": "王庄镇", "place": "town", "place:CN": "town", "short_name": "王庄", "source:name": "GNS", "wikidata": "Q13913883", "wikipedia": "zh:王庄镇 (新野县)"}, "lon": 112.4220263, "lat": 32.3958092, "center": null}, {"type": "node", "id": 3681793611, "tags": {"capital": "8", "name": "樊集乡", "name:en": "Fanji", "name:zh": "樊集乡", "name:zh-Hans": "樊集乡", "name:zh-Hant": "樊集鄉", "name:zh-Latn-pinyin": "Fánjí Xiāng", "official_name": "樊集乡", "place": "town", "place:CN": "township", "short_name": "樊集", "source:name": "GNS", "wikidata": "Q11121043", "wikipedia": "zh:樊集乡 (新野县)"}, "lon": 112.4147984, "lat": 32.6289499, "center": null}, {"type": "node", "id": 3681793612, "tags": {"capital": "8", "name": "沙堰镇", "name:en": "Shayan", "name:zh": "沙堰镇", "name:zh-Hans": "沙堰镇", "name:zh-Hant": "沙堰鎮", "name:zh-Latn-pinyin": "Shāyàn Zhèn", "official_name": "沙堰镇", "place": "town", "place:CN": "town", "short_name": "沙堰", "source:name": "GNS", "wikidata": "Q11139803", "wikipedia": "zh:沙堰镇"}, "lon": 112.4569828, "lat": 32.6059829, "center": null}, {"type": "node", "id": 5002281331, "tags": {"capital": "8", "name": "桃溪镇", "name:en": "Taoxi", "name:zh": "桃溪镇", "name:zh-Hans": "桃溪镇", "name:zh-Hant": "桃溪鎮", "name:zh-Latn-pinyin": "Táoxī Zhèn", "official_name": "桃溪镇", "old_name": "西庙岗;西庙岗乡", "old_name:en": "Ximiaogang", "old_name:zh": "西庙岗;西庙岗乡", "place": "town", "place:CN": "town", "short_name": "桃溪", "source:name": "GNS", "wikidata": "Q11112414", "wikipedia": "zh:桃溪镇 (内乡县)"}, "lon": 111.6301489, "lat": 33.0375259, "center": null}, {"type": "node", "id": 5195275870, "tags": {"capital": "8", "name": "龙堰乡", "name:en": "Longyan", "name:uk": "Лун'янь", "name:zh": "龙堰乡", "name:zh-Hans": "龙堰乡", "name:zh-Hant": "龍堰鄉", "name:zh-Latn-pinyin": "Lóngyàn Xiāng", "official_name": "龙堰乡", "place": "town", "place:CN": "township", "short_name": "龙堰", "source:name": "GNS", "wikidata": "Q11181023", "wikipedia": "zh:龙堰乡"}, "lon": 112.0890856, "lat": 32.6002286, "center": null}, {"type": "node", "id": 5195275871, "tags": {"alt_name:en": "Kou-lin;Kou-lin-kuan", "capital": "8", "name": "构林镇", "name:en": "Goulin", "name:zh": "构林镇", "name:zh-Hans": "构林镇", "name:zh-Hant": "構林鎮", "name:zh-Latn-pinyin": "Gòulín Zhèn", "official_name": "构林镇", "place": "town", "place:CN": "town", "short_name": "构林", "source:name": "GNS", "wikidata": "Q11105278", "wikipedia": "zh:构林镇"}, "lon": 112.1157933, "lat": 32.5027021, "center": null}, {"type": "node", "id": 5195481377, "tags": {"alt_name:en": "Xindian;Hsin-tien-p'u;Hsin-tien", "capital": "8", "name": "新甸铺镇", "name:en": "Xindianpu", "name:zh": "新甸铺镇", "name:zh-Hans": "新甸铺镇", "name:zh-Hant": "新甸鋪鎮", "name:zh-Latn-pinyin": "Xīndiānpù Zhèn", "official_name": "新甸铺镇", "place": "town", "place:CN": "town", "short_name": "新甸铺", "source:name": "GNS", "wikidata": "Q13914064", "wikipedia": "zh:新甸铺镇"}, "lon": 112.304008, "lat": 32.4115527, "center": null}, {"type": "node", "id": 5895477848, "tags": {"alt_name:en": "P'eng-ch'iao", "capital": "8", "name": "彭桥镇", "name:en": "Pengqiao", "name:zh": "彭桥镇", "name:zh-Hans": "彭桥镇", "name:zh-Hant": "彭橋鎮", "name:zh-Latn-pinyin": "Péngqiáo Zhèn", "official_name": "彭桥镇", "place": "town", "place:CN": "town", "short_name": "彭桥", "source:name": "GNS", "wikidata": "Q11069861", "wikipedia": "zh:彭桥镇"}, "lon": 111.791046, "lat": 32.6247684, "center": null}, {"type": "node", "id": 5895479185, "tags": {"name": "林山村", "place": "village"}, "lon": 111.7829385, "lat": 32.6558797, "center": null}, {"type": "node", "id": 6766142259, "tags": {"alt_name:en": "Pai-niu-p'u;Pai-niu-chen;Pai-niu", "capital": "8", "name": "白牛镇", "name:en": "Bainiu", "name:zh": "白牛镇", "name:zh-Hans": "白牛镇", "name:zh-Hant": "白牛鎮", "name:zh-Latn-pinyin": "Báiniú Zhèn", "official_name": "白牛镇", "old_name": "白牛乡", "place": "town", "place:CN": "town", "short_name": "白牛", "source:name": "GNS", "wikidata": "Q13918151", "wikipedia": "zh:白牛镇"}, "lon": 112.211, "lat": 32.7598, "center": null}, {"type": "node", "id": 6766142260, "tags": {"capital": "8", "name": "都司镇", "name:en": "Dusi", "name:zh": "都司镇", "name:zh-Hans": "都司镇", "name:zh-Hant": "都司鎮", "name:zh-Latn-pinyin": "Dūsī Zhèn", "official_name": "都司镇", "place": "town", "place:CN": "town", "short_name": "都司", "source:name": "GNS", "wikidata": "Q13917484", "wikipedia": "zh:都司镇 (邓州市)"}, "lon": 112.006, "lat": 32.4987, "center": null}, {"type": "node", "id": 6766142261, "tags": {"alt_name:en": "Kao-chi", "capital": "8", "name": "高集乡", "name:en": "Gaoji", "name:zh": "高集乡", "name:zh-Hans": "高集乡", "name:zh-Hant": "高集鄉", "name:zh-Latn-pinyin": "Gāojí Xiāng", "official_name": "高集乡", "place": "town", "place:CN": "township", "short_name": "高集", "source:name": "GNS", "wikidata": "Q13918652", "wikipedia": "zh:高集镇 (邓州市)"}, "lon": 111.911, "lat": 32.6535, "center": null}, {"type": "node", "id": 6766142262, "tags": {"capital": "8", "name": "古城街道", "name:en": "Gucheng", "name:zh": "古城街道", "name:zh-Hans": "古城街道", "name:zh-Hant": "古城街道", "name:zh-Latn-pinyin": "Gǔchéng Jiēdào", "official_name": "古城街道", "official_name:en": "Gucheng Subdistrict", "official_name:zh": "古城街道", "place": "town", "place:CN": "subdistrict", "short_name": "古城", "wikidata": "Q10913185", "wikipedia": "zh:古城街道 (邓州市)"}, "lon": 112.0620359, "lat": 32.685945, "center": null}, {"type": "node", "id": 6766142264, "tags": {"capital": "8", "name": "花洲街道", "name:en": "Huazhou", "name:zh": "花洲街道", "name:zh-Hans": "花洲街道", "name:zh-Hant": "花洲街道", "name:zh-Latn-pinyin": "Huāzhōu Jiēdào", "official_name": "花洲街道", "official_name:en": "Huazhou Subdistrict", "official_name:zh": "花洲街道", "place": "town", "place:CN": "subdistrict", "short_name": "花洲", "wikidata": "Q13916333", "wikipedia": "zh:花洲街道"}, "lon": 112.1004752, "lat": 32.6890973, "center": null}, {"type": "node", "id": 6766142265, "tags": {"capital": "8", "name": "㴔滩镇", "name:en": "Xitan", "name:zh": "㴔滩镇", "name:zh-Hans": "㴔滩镇", "name:zh-Hant": "㴔灘鎮", "name:zh-Latn-pinyin": "Xítān Zhèn", "not:name": "汲滩镇", "not:name:en": "Jitan", "not:name:zh": "汲滩镇", "note": "民政用名称为“㴔滩镇”，统计用名称为“汲滩镇”", "official_name": "㴔滩镇", "place": "town", "place:CN": "town", "source:name": "GNS", "wikidata": "Q13916602", "wikipedia": "zh:汲滩镇"}, "lon": 112.271, "lat": 32.6815, "center": null}, {"type": "node", "id": 6766142266, "tags": {"capital": "8", "name": "九龙镇", "name:en": "Jiulong", "name:zh": "九龙镇", "name:zh-Hans": "九龙镇", "name:zh-Hant": "九龍鎮", "name:zh-Latn-pinyin": "Jiǔlóng Zhèn", "official_name": "九龙镇", "old_name": "九龙乡", "place": "town", "place:CN": "town", "short_name": "九龙", "source:name": "GNS", "wikidata": "Q10879641", "wikipedia": "zh:九龙镇 (邓州市)"}, "lon": 111.886, "lat": 32.7493, "center": null}, {"type": "node", "id": 6766142267, "tags": {"capital": "8", "name": "林扒镇", "name:en": "Linba", "name:zh": "林扒镇", "name:zh-Hans": "林扒镇", "name:zh-Hant": "林扒鎮", "name:zh-Latn-pinyin": "Línbā Zhèn", "official_name": "林扒镇", "place": "town", "place:CN": "town", "short_name": "林扒", "source:name": "GNS", "wikidata": "Q11106180", "wikipedia": "zh:林扒镇"}, "lon": 111.902, "lat": 32.5658, "center": null}, {"type": "node", "id": 6766142268, "tags": {"capital": "8", "name": "刘集镇", "name:en": "Liuji", "name:zh": "刘集镇", "name:zh-Hans": "刘集镇", "name:zh-Hant": "劉集鎮", "name:zh-Latn-pinyin": "Liújí Zhèn", "official_name": "刘集镇", "place": "town", "place:CN": "town", "short_name": "刘集", "source:name": "GNS", "wikidata": "Q2165086", "wikipedia": "zh:刘集镇 (邓州市)"}, "lon": 112.217, "lat": 32.4624, "center": null}, {"type": "node", "id": 6766142269, "tags": {"capital": "8", "name": "裴营乡", "name:en": "Peiying", "name:zh": "裴营乡", "name:zh-Hans": "裴营乡", "name:zh-Hant": "裴營鄉", "name:zh-Latn-pinyin": "Péiyíng Xiāng", "official_name": "裴营乡", "place": "town", "place:CN": "township", "short_name": "裴营", "source:name": "GNS", "wikidata": "Q13918405", "wikipedia": "zh:裴营乡"}, "lon": 112.059, "lat": 32.7871, "center": null}, {"type": "node", "id": 6766142270, "tags": {"capital": "8", "name": "桑庄镇", "name:en": "Sangzhuang", "name:zh": "桑庄镇", "name:zh-Hans": "桑庄镇", "name:zh-Hant": "桑莊鎮", "name:zh-Latn-pinyin": "Sāngzhuāng Zhèn", "official_name": "桑庄镇", "old_name": "桑庄乡", "place": "town", "place:CN": "town", "short_name": "桑庄", "source:name": "GNS", "wikidata": "Q11113000", "wikipedia": "zh:桑庄镇"}, "lon": 112.216, "lat": 32.6004, "center": null}, {"type": "node", "id": 6766142271, "tags": {"capital": "8", "name": "陶营乡", "name:en": "Taoying", "name:zh": "陶营乡", "name:zh-Hans": "陶营乡", "name:zh-Hant": "陶營鄉", "name:zh-Latn-pinyin": "Táoyíng Xiāng", "official_name": "陶营乡", "place": "town", "place:CN": "township", "short_name": "陶营", "source:name": "GNS", "wikidata": "Q13918756", "wikipedia": "zh:陶营镇 (邓州市)"}, "lon": 111.985, "lat": 32.612, "center": null}, {"type": "node", "id": 6766142272, "tags": {"capital": "8", "name": "湍河街道", "name:en": "Tuanhe", "name:zh": "湍河街道", "name:zh-Hans": "湍河街道", "name:zh-Hant": "湍河街道", "name:zh-Latn-pinyin": "Tuānhé Jiēdào", "official_name": "湍河街道", "official_name:en": "Tuanhe Subdistrict", "official_name:zh": "湍河街道", "place": "town", "place:CN": "subdistrict", "short_name": "湍河", "wikidata": "Q13916394", "wikipedia": "zh:湍河街道"}, "lon": 112.0906325, "lat": 32.6656394, "center": null}, {"type": "node", "id": 6766142273, "tags": {"capital": "8", "name": "文渠镇", "name:en": "Wenqu", "name:zh": "文渠镇", "name:zh-Hans": "文渠镇", "name:zh-Hant": "文渠鎮", "name:zh-Latn-pinyin": "Wénqú Zhèn", "old_name": "文渠乡", "place": "town", "place:CN": "town", "short_name": "文渠", "source:name": "GNS", "wikidata": "Q11080052", "wikipedia": "zh:文渠镇"}, "lon": 111.955, "lat": 32.7433, "center": null}, {"type": "node", "id": 6766142274, "tags": {"capital": "8", "name": "夏集乡", "name:en": "Xiaji", "name:zh": "夏集乡", "name:zh-Hans": "夏集乡", "name:zh-Hant": "夏集鄉", "name:zh-Latn-pinyin": "Xiàjí Xiāng", "official_name": "夏集乡", "place": "town", "place:CN": "township", "short_name": "夏集", "source:name": "GNS", "wikidata": "Q10932210", "wikipedia": "zh:夏集镇 (邓州市)"}, "lon": 112.151667, "lat": 32.785278, "center": null}, {"type": "node", "id": 6766142275, "tags": {"capital": "8", "name": "小杨营镇", "name:en": "Xiaoyangying", "name:zh": "小杨营镇", "name:zh-Hans": "小杨营镇", "name:zh-Hant": "小楊營鎮", "name:zh-Latn-pinyin": "Xiǎoyángyíng Zhèn", "old_name": "小杨营乡", "place": "town", "place:CN": "town", "short_name": "小杨营", "source:name": "GNS", "wikidata": "Q10959105", "wikipedia": "zh:小杨营镇"}, "lon": 112.246, "lat": 32.5386, "center": null}, {"type": "node", "id": 6766142276, "tags": {"capital": "8", "name": "腰店镇", "name:en": "Yaodian", "name:zh": "腰店镇", "name:zh-Hans": "腰店镇", "name:zh-Hant": "腰店鎮", "name:zh-Latn-pinyin": "Yāodiàn Zhèn", "official_name": "腰店镇", "old_name": "腰店乡", "place": "town", "place:CN": "town", "short_name": "腰店", "source:name": "GNS", "wikidata": "Q13918938", "wikipedia": "zh:腰店镇"}, "lon": 112.171667, "lat": 32.6925, "center": null}, {"type": "node", "id": 6766142277, "tags": {"alt_name": "元庄村", "name": "元庄", "name:en": "Yuanzhuang", "name:zh": "元庄", "old_name": "元庄乡", "place": "village", "source:name": "GNS"}, "lon": 112.263889, "lat": 32.760278, "center": null}, {"type": "node", "id": 6766142278, "tags": {"capital": "8", "name": "张楼乡", "name:en": "Zhanglou", "name:zh": "张楼乡", "name:zh-Hans": "张楼乡", "name:zh-Hant": "張樓鄉", "name:zh-Latn-pinyin": "Zhānglóu Xiāng", "official_name": "张楼乡", "place": "town", "place:CN": "township", "short_name": "张楼", "source:name": "GNS", "wikidata": "Q11067303", "wikipedia": "zh:张楼乡 (邓州市)"}, "lon": 112.15, "lat": 32.7338, "center": null}, {"type": "node", "id": 6766142279, "tags": {"capital": "8", "name": "赵集镇", "name:en": "Zhaoji", "name:zh": "赵集镇", "name:zh-Hans": "赵集镇", "name:zh-Hant": "趙集鎮", "name:zh-Latn-pinyin": "Zhàojí Zhèn", "official_name": "赵集镇", "place": "town", "place:CN": "town", "short_name": "赵集", "source:name": "GNS", "wikidata": "Q13917583", "wikipedia": "zh:赵集镇 (邓州市)"}, "lon": 111.992, "lat": 32.851, "center": null}, {"type": "node", "id": 6766783674, "tags": {"capital": "8", "name": "城关镇", "name:en": "Chengguan", "name:zh": "城关镇", "name:zh-Hans": "城关镇", "name:zh-Hant": "城關鎮", "name:zh-Latn-pinyin": "Chéngguān Zhèn", "official_name": "城关镇", "place": "town", "place:CN": "town", "short_name": "城关", "source:name": "GNS", "wikidata": "Q10929371", "wikipedia": "zh:城关镇 (内乡县)"}, "lon": 111.843611, "lat": 33.046667, "center": null}, {"type": "node", "id": 6766783675, "tags": {"alt_name:en": "Ch'ih-mei-chen;Ch'ih-mei", "capital": "8", "name": "赤眉镇", "name:en": "Chimei", "name:zh": "赤眉镇", "name:zh-Hans": "赤眉镇", "name:zh-Hant": "赤眉鎮", "name:zh-Latn-pinyin": "Chìméi Zhèn", "official_name": "赤眉镇", "place": "town", "place:CN": "town", "short_name": "赤眉", "source:name": "GNS", "wikidata": "Q13889355", "wikipedia": "zh:赤眉镇"}, "lon": 111.794, "lat": 33.1927, "center": null}, {"type": "node", "id": 6766783676, "tags": {"capital": "8", "name": "大桥乡", "name:en": "Daqiao", "name:zh": "大桥乡", "name:zh-Hans": "大桥乡", "name:zh-Hant": "大橋鄉", "name:zh-Latn-pinyin": "Dàqiáo Xiāng", "official_name": "大桥乡", "place": "town", "place:CN": "township", "short_name": "大桥", "source:name": "GNS", "wikidata": "Q3565545", "wikipedia": "zh:大桥乡 (内乡县)"}, "lon": 111.87, "lat": 32.9919, "center": null}, {"type": "node", "id": 6766783677, "tags": {"alt_name:en": "Guanzhangpu;Kuan-chang-p'u", "capital": "8", "name": "灌涨镇", "name:en": "Guanzhang", "name:zh": "灌涨镇", "name:zh-Hans": "灌涨镇", "name:zh-Hant": "灌漲鎮", "name:zh-Latn-pinyin": "Guànzhǎng Zhèn", "official_name": "灌涨镇", "place": "town", "place:CN": "town", "short_name": "灌涨", "source:name": "GNS", "wikidata": "Q13889688", "wikipedia": "zh:灌涨镇"}, "lon": 111.936352, "lat": 33.039601, "center": null}, {"type": "node", "id": 6766783678, "tags": {"capital": "8", "name": "湍东镇", "name:en": "Tuandong", "name:zh": "湍东镇", "name:zh-Hans": "湍东镇", "name:zh-Hant": "湍東鎮", "name:zh-Latn-pinyin": "Tuāndōng Zhèn", "official_name": "湍东镇", "place": "town", "place:CN": "town", "short_name": "湍东", "source:name": "GNS", "wikidata": "Q13889195", "wikipedia": "zh:湍东镇"}, "lon": 111.853, "lat": 33.0646, "center": null}, {"type": "node", "id": 6766783679, "tags": {"capital": "8", "name": "瓦亭镇", "name:en": "Wating", "name:zh": "瓦亭镇", "name:zh-Hans": "瓦亭镇", "name:zh-Hant": "瓦亭鎮", "name:zh-Latn-pinyin": "Wǎtíng Zhèn", "official_name": "瓦亭镇", "place": "town", "place:CN": "town", "short_name": "瓦亭", "source:name": "GNS", "wikidata": "Q13889481", "wikipedia": "zh:瓦亭镇"}, "lon": 111.691, "lat": 32.8788, "center": null}, {"type": "node", "id": 6766783680, "tags": {"capital": "8", "name": "余关镇", "name:en": "Yuguan", "name:zh": "余关镇", "name:zh-Hans": "余关镇", "name:zh-Hant": "餘關鎮", "name:zh-Latn-pinyin": "Yúguān Zhèn", "official_name": "余关镇", "old_name": "余关乡", "place": "town", "place:CN": "town", "short_name": "余关", "source:name": "GNS", "wikidata": "Q10886496", "wikipedia": "zh:余关镇"}, "lon": 111.893, "lat": 33.1758, "center": null}, {"type": "node", "id": 6766783681, "tags": {"capital": "8", "name": "赵店乡", "name:en": "Zhaodian", "name:zh": "赵店乡", "name:zh-Hans": "赵店乡", "name:zh-Hant": "趙店鄉", "name:zh-Latn-pinyin": "Zhàodiàn Xiāng", "official_name": "赵店乡", "place": "town", "place:CN": "township", "short_name": "赵店", "source:name": "GNS", "wikidata": "Q13890057", "wikipedia": "zh:赵店乡"}, "lon": 111.791, "lat": 33.1224, "center": null}, {"type": "node", "id": 6766783682, "tags": {"alt_name": "砟岖镇", "alt_name:zh": "砟岖镇", "capital": "8", "name": "岞岖镇", "name:en": "Zuoqu", "name:zh": "岞岖镇", "name:zh-Hans": "岞岖镇", "name:zh-Hant": "岞嶇鎮", "name:zh-Latn-pinyin": "Zuòqū Zhèn", "official_name": "岞岖镇", "old_name": "砟岖乡;岞岖乡", "place": "town", "place:CN": "town", "short_name": "岞岖;砟岖", "wikidata": "Q13890370", "wikipedia": "zh:岞岖镇"}, "lon": 111.6812046, "lat": 32.9757782, "center": null}, {"type": "node", "id": 6767239362, "tags": {"capital": "8", "name": "城郊乡", "name:en": "Chengjiao", "name:zh": "城郊乡", "name:zh-Hans": "城郊乡", "name:zh-Hant": "城郊鄉", "name:zh-Latn-pinyin": "Chéngjiāo Xiāng", "official_name": "城郊乡", "place": "town", "place:CN": "township", "short_name": "城郊", "wikidata": "Q10930039", "wikipedia": "zh:城郊乡 (新野县)"}, "lon": 112.3524299, "lat": 32.4873308, "center": null}, {"type": "node", "id": 6767239363, "tags": {"capital": "8", "name": "汉华街道", "name:en": "Hanhua", "name:zh": "汉华街道", "name:zh-Hans": "汉华街道", "name:zh-Hant": "漢華街道", "name:zh-Latn-pinyin": "Hànhuá Jiēdào", "official_name": "汉华街道", "official_name:en": "Hanhua Subdistrict", "official_name:zh": "汉华街道", "place": "town", "place:CN": "subdistrict", "short_name": "汉华", "wikidata": "Q11133136", "wikipedia": "zh:汉华街道"}, "lon": 112.374008, "lat": 32.5333543, "center": null}, {"type": "node", "id": 6767239364, "tags": {"alt_name:en": "Li-ho-p'u;Lihe", "capital": "8", "name": "溧河铺镇", "name:en": "Lihepu", "name:zh": "溧河铺镇", "name:zh-Hans": "溧河铺镇", "name:zh-Hant": "溧河鋪鎮", "name:zh-Latn-pinyin": "Lìhépù Zhèn", "official_name": "溧河铺镇", "old_name": "溧河铺乡", "place": "town", "place:CN": "town", "short_name": "溧河铺", "source:name": "GNS", "wikidata": "Q13914517", "wikipedia": "zh:溧河铺镇"}, "lon": 112.459, "lat": 32.5176, "center": null}, {"type": "node", "id": 6767239365, "tags": {"capital": "8", "name": "前高庙乡", "name:en": "Qiangaomiao", "name:zh": "前高庙乡", "name:zh-Hans": "前高庙乡", "name:zh-Hant": "前高廟鄉", "name:zh-Latn-pinyin": "Qiángāomiào Xiāng", "official_name": "前高庙乡", "old_name": "前高苗;前高苗乡", "place": "town", "place:CN": "township", "source:name": "GNS", "wikidata": "Q10899098", "wikipedia": "zh:前高庙乡"}, "lon": 112.512, "lat": 32.4935, "center": null}, {"type": "node", "id": 6767239366, "tags": {"capital": "8", "name": "上港乡", "name:en": "Shanggang", "name:zh": "上港乡", "name:zh-Hans": "上港乡", "name:zh-Hant": "上港鄉", "name:zh-Latn-pinyin": "Shànggǎng Xiāng", "official_name": "上港乡", "place": "town", "place:CN": "township", "short_name": "上港", "source:name": "GNS", "wikidata": "Q10868127", "wikipedia": "zh:上港乡"}, "lon": 112.317, "lat": 32.5023, "center": null}, {"type": "node", "id": 6767239367, "tags": {"capital": "8", "name": "上庄乡", "name:en": "Shangzhuang", "name:zh": "上庄乡", "name:zh-Hans": "上庄乡", "name:zh-Hant": "上莊鄉", "name:zh-Latn-pinyin": "Shàngzhuāng Xiāng", "official_name": "上庄乡", "place": "town", "place:CN": "township", "short_name": "上庄", "source:name": "GNS", "wikidata": "Q10867417", "wikipedia": "zh:上庄乡 (新野县)"}, "lon": 112.37, "lat": 32.6544, "center": null}, {"type": "node", "id": 6767239368, "tags": {"capital": "8", "name": "施庵镇", "name:en": "Shi'an", "name:zh": "施庵镇", "name:zh-Hans": "施庵镇", "name:zh-Hant": "施庵鎮", "name:zh-Latn-pinyin": "Shī'ān Zhèn", "official_name": "施庵镇", "place": "town", "place:CN": "town", "short_name": "施庵", "source:name": "GNS", "wikidata": "Q11085175", "wikipedia": "zh:施庵镇"}, "lon": 112.545, "lat": 32.5944, "center": null}, {"type": "node", "id": 6767239369, "tags": {"alt_name:en": "Wai-tzu;Wai-tzu-chen", "capital": "8", "name": "歪子镇", "name:en": "Waizi", "name:zh": "歪子镇", "name:zh-Hans": "歪子镇", "name:zh-Hant": "歪子鎮", "name:zh-Latn-pinyin": "Wāizi Zhèn", "official_name": "歪子镇", "place": "town", "place:CN": "town", "short_name": "歪子", "source:name": "GNS", "wikidata": "Q3818243", "wikipedia": "zh:歪子镇"}, "lon": 112.382, "lat": 32.7303, "center": null}, {"type": "node", "id": 6767239370, "tags": {"capital": "8", "name": "五星镇", "name:en": "Wuxing", "name:zh": "五星镇", "name:zh-Hans": "五星镇", "name:zh-Hant": "五星鎮", "name:zh-Latn-pinyin": "Wǔxīng Zhèn", "official_name": "五星镇", "place": "town", "place:CN": "town", "short_name": "五星", "source:name": "GNS", "wikidata": "Q31850909", "wikipedia": "zh:五星镇 (新野县)"}, "lon": 112.388, "lat": 32.4095, "center": null}, {"type": "node", "id": 8342911480, "tags": {"name": "白杨村", "name:en": "Baiyang", "place": "village"}, "lon": 111.6559297, "lat": 32.9430779, "center": null}, {"type": "node", "id": 8342911481, "tags": {"name": "李圪塔", "name:en": "Ligeda", "place": "hamlet"}, "lon": 111.6544849, "lat": 32.9403172, "center": null}, {"type": "node", "id": 8342911482, "tags": {"name": "坡根", "name:en": "Pogen", "place": "hamlet"}, "lon": 111.6505946, "lat": 32.9437936, "center": null}, {"type": "node", "id": 8342911483, "tags": {"name": "刘沟", "name:en": "Liugou", "place": "hamlet"}, "lon": 111.6485342, "lat": 32.9414962, "center": null}, {"type": "node", "id": 8342911484, "tags": {"name": "洼里", "name:en": "Wali", "place": "hamlet"}, "lon": 111.6458235, "lat": 32.9461696, "center": null}, {"type": "node", "id": 8342911485, "tags": {"name": "黄岭", "name:en": "Huangling", "place": "hamlet"}, "lon": 111.6520862, "lat": 32.9489368, "center": null}, {"type": "node", "id": 8342911486, "tags": {"name": "张灌沟", "name:en": "Zhang Guangou", "place": "hamlet"}, "lon": 111.6420549, "lat": 32.9383868, "center": null}, {"type": "node", "id": 8342911487, "tags": {"name": "张家营", "name:en": "Zhangjiaying", "place": "hamlet"}, "lon": 111.6610724, "lat": 32.9369907, "center": null}, {"type": "node", "id": 8913115713, "tags": {"division_code": "411326105218", "name": "陶岔村", "name:en": "Taochacun", "name:zh": "陶岔村", "nat_name": "陶岔村", "place": "village", "place:CN": "village"}, "lon": 111.7143172, "lat": 32.6723935, "center": null}, {"type": "node", "id": 8913115766, "tags": {"division_code": "411326103228", "name": "白龙沟村", "name:en": "Bailonggoucun", "name:zh": "白龙沟村", "nat_name": "白龙沟村", "place": "village", "place:CN": "village"}, "lon": 111.5694312, "lat": 32.6268848, "center": null}, {"type": "node", "id": 8913115805, "tags": {"is_in:county": "淅川县", "name": "蒋庄", "name:en": "Jiangzhuang", "name:zh": "蒋庄", "place": "hamlet"}, "lon": 111.8246558, "lat": 32.7408039, "center": null}, {"type": "node", "id": 8913115857, "tags": {"division_code": "411326103227", "name": "雷庄村", "name:en": "Leizhuangcun", "name:zh": "雷庄村", "nat_name": "雷庄村", "place": "village", "place:CN": "village"}, "lon": 111.5573636, "lat": 32.6068808, "center": null}, {"type": "node", "id": 8913115877, "tags": {"division_code": "411326111236", "name": "朱营村", "name:en": "Zhuyingcun", "name:zh": "朱营村", "nat_name": "朱营村", "place": "village", "place:CN": "village"}, "lon": 111.595584, "lat": 32.9970472, "center": null}, {"type": "node", "id": 8913115990, "tags": {"division_code": "411326103226", "name": "乔庄村", "name:en": "Qiaozhuangcun", "name:zh": "乔庄村", "nat_name": "乔庄村", "place": "village", "place:CN": "village"}, "lon": 111.5839332, "lat": 32.6087118, "center": null}, {"type": "node", "id": 8913116162, "tags": {"division_code": "411326103225", "name": "柴沟村", "name:en": "Chaigoucun", "name:zh": "柴沟村", "nat_name": "柴沟村", "place": "village", "place:CN": "village"}, "lon": 111.6099901, "lat": 32.64817, "center": null}, {"type": "node", "id": 8913116264, "tags": {"is_in:county": "淅川县", "name": "李窝", "name:en": "Liwo", "name:zh": "李窝", "place": "hamlet"}, "lon": 111.8334645, "lat": 32.7957802, "center": null}, {"type": "node", "id": 8913116290, "tags": {"is_in:county": "淅川县", "name": "庄子上", "name:en": "Zhuangzishang", "name:zh": "庄子上", "place": "hamlet"}, "lon": 111.5468686, "lat": 32.6142534, "center": null}, {"type": "node", "id": 8913116331, "tags": {"is_in:county": "淅川县", "name": "石碑岭", "name:en": "Shibeiling", "name:zh": "石碑岭", "place": "hamlet"}, "lon": 111.5623139, "lat": 32.6379284, "center": null}, {"type": "node", "id": 8913116332, "tags": {"is_in:county": "淅川县", "name": "小黑龙沟", "name:en": "Xiaoheilonggou", "name:zh": "小黑龙沟", "place": "hamlet"}, "lon": 111.5851599, "lat": 32.6270642, "center": null}, {"type": "node", "id": 8913116368, "tags": {"is_in:county": "淅川县", "name": "土寨", "name:en": "Tuzhai", "name:zh": "土寨", "place": "hamlet"}, "lon": 111.8346217, "lat": 32.7553967, "center": null}, {"type": "node", "id": 8913116373, "tags": {"is_in:county": "淅川县", "name": "朱家营", "name:en": "Zhujiaying", "name:zh": "朱家营", "place": "hamlet"}, "lon": 111.5945274, "lat": 32.9951612, "center": null}, {"type": "node", "id": 8913116389, "tags": {"is_in:county": "淅川县", "name": "傅营", "name:en": "Fuying", "name:zh": "傅营", "place": "hamlet"}, "lon": 111.7171586, "lat": 32.6716496, "center": null}, {"type": "node", "id": 8913116412, "tags": {"is_in:county": "淅川县", "name": "上魏营", "name:en": "Shangweiying", "name:zh": "上魏营", "place": "hamlet"}, "lon": 111.5754281, "lat": 33.10802, "center": null}, {"type": "node", "id": 8913116423, "tags": {"is_in:county": "淅川县", "name": "钢叉寿", "name:en": "Gangchashou", "name:zh": "钢叉寿", "place": "hamlet"}, "lon": 111.5397357, "lat": 32.6178397, "center": null}, {"type": "node", "id": 8913116459, "tags": {"is_in:county": "淅川县", "name": "小刘营", "name:en": "Xiaoliuying", "name:zh": "小刘营", "place": "hamlet"}, "lon": 111.7859593, "lat": 32.6634138, "center": null}, {"type": "node", "id": 8913116470, "tags": {"is_in:county": "淅川县", "name": "肖楼", "name:en": "Xiaolou", "name:zh": "肖楼", "place": "hamlet"}, "lon": 111.7549025, "lat": 32.6673967, "center": null}, {"type": "node", "id": 8913116475, "tags": {"is_in:county": "淅川县", "name": "迁洼", "name:en": "Qianwa", "name:zh": "迁洼", "place": "hamlet"}, "lon": 111.8359445, "lat": 32.7886641, "center": null}, {"type": "node", "id": 8913116493, "tags": {"is_in:county": "淅川县", "name": "赵家庄", "name:en": "Zhaojiazhuang", "name:zh": "赵家庄", "place": "hamlet"}, "lon": 111.580984, "lat": 32.633879, "center": null}, {"type": "node", "id": 8913116504, "tags": {"is_in:county": "淅川县", "name": "黑龙沟", "name:en": "Heilonggou", "name:zh": "黑龙沟", "place": "hamlet"}, "lon": 111.5910724, "lat": 32.6336963, "center": null}, {"type": "node", "id": 8913116578, "tags": {"is_in:county": "淅川县", "name": "三岔口", "name:en": "Sanchakou", "name:zh": "三岔口", "place": "hamlet"}, "lon": 111.5768211, "lat": 32.6333651, "center": null}, {"type": "node", "id": 8913116594, "tags": {"is_in:county": "淅川县", "name": "雷庄", "name:en": "Leizhuang", "name:zh": "雷庄", "place": "hamlet"}, "lon": 111.5530181, "lat": 32.6142314, "center": null}, {"type": "node", "id": 8913116603, "tags": {"is_in:county": "淅川县", "name": "马大河", "name:en": "Madahe", "name:zh": "马大河", "place": "hamlet"}, "lon": 111.5508234, "lat": 32.6189632, "center": null}, {"type": "node", "id": 8913116620, "tags": {"is_in:county": "淅川县", "name": "蚂蚁成沟", "name:en": "Mayichenggou", "name:zh": "蚂蚁成沟", "place": "hamlet"}, "lon": 111.5645904, "lat": 32.6195089, "center": null}, {"type": "node", "id": 8913116650, "tags": {"is_in:county": "淅川县", "name": "上陈家", "name:en": "Shangchenjia", "name:zh": "上陈家", "place": "hamlet"}, "lon": 111.8456132, "lat": 32.6632347, "center": null}, {"type": "node", "id": 8913116661, "tags": {"is_in:county": "淅川县", "name": "西沟", "name:en": "Xigou", "name:zh": "西沟", "place": "hamlet"}, "lon": 111.584322, "lat": 32.6146465, "center": null}, {"type": "node", "id": 8913116684, "tags": {"is_in:county": "淅川县", "name": "下魏营", "name:en": "Xiaweiying", "name:zh": "下魏营", "place": "hamlet"}, "lon": 111.5705369, "lat": 33.1048307, "center": null}, {"type": "node", "id": 8913116776, "tags": {"is_in:county": "淅川县", "name": "小陈营", "name:en": "Xiaochenying", "name:zh": "小陈营", "place": "hamlet"}, "lon": 111.8253275, "lat": 32.7501015, "center": null}, {"type": "node", "id": 8913116806, "tags": {"is_in:county": "淅川县", "name": "雷洞沟", "name:en": "Leidonggou", "name:zh": "雷洞沟", "place": "hamlet"}, "lon": 111.5808578, "lat": 32.6373691, "center": null}, {"type": "node", "id": 8913116860, "tags": {"is_in:county": "淅川县", "name": "杨洞保沟", "name:en": "Yangdongbaogou", "name:zh": "杨洞保沟", "place": "hamlet"}, "lon": 111.5747049, "lat": 32.638984, "center": null}, {"type": "node", "id": 8913116937, "tags": {"is_in:county": "淅川县", "name": "武家山根", "name:en": "Wujiashangen", "name:zh": "武家山根", "place": "hamlet"}, "lon": 111.5708395, "lat": 33.1277133, "center": null}, {"type": "node", "id": 8913116948, "tags": {"is_in:county": "淅川县", "name": "大刘营", "name:en": "Daliuying", "name:zh": "大刘营", "place": "hamlet"}, "lon": 111.7729622, "lat": 32.6672886, "center": null}, {"type": "node", "id": 8913116991, "tags": {"is_in:county": "淅川县", "name": "赵家沟", "name:en": "Zhaojiagou", "name:zh": "赵家沟", "place": "hamlet"}, "lon": 111.5970613, "lat": 32.9994723, "center": null}, {"type": "node", "id": 8913117027, "tags": {"is_in:county": "淅川县", "name": "方沟", "name:en": "Fanggou", "name:zh": "方沟", "place": "hamlet"}, "lon": 111.5893981, "lat": 32.6147126, "center": null}, {"type": "node", "id": 8913117030, "tags": {"is_in:county": "淅川县", "name": "欧家庄", "name:en": "Oujiazhuang", "name:zh": "欧家庄", "place": "hamlet"}, "lon": 111.5843672, "lat": 32.6098913, "center": null}, {"type": "node", "id": 8913117049, "tags": {"is_in:county": "淅川县", "name": "千佛阁", "name:en": "Qianfoge", "name:zh": "千佛阁", "place": "hamlet"}, "lon": 111.7234235, "lat": 32.8591352, "center": null}, {"type": "node", "id": 8913117078, "tags": {"is_in:county": "淅川县", "name": "白果树", "name:en": "Baiguoshu", "name:zh": "白果树", "place": "hamlet"}, "lon": 111.5600049, "lat": 32.6072925, "center": null}, {"type": "node", "id": 8913117143, "tags": {"is_in:county": "淅川县", "name": "任庄", "name:en": "Renzhuang", "name:zh": "任庄", "place": "hamlet"}, "lon": 111.5681532, "lat": 33.1033368, "center": null}, {"type": "node", "id": 8913117157, "tags": {"is_in:county": "淅川县", "name": "陈家老庄", "name:en": "Chenjialaozhuang", "name:zh": "陈家老庄", "place": "hamlet"}, "lon": 111.5609216, "lat": 32.6328887, "center": null}, {"type": "node", "id": 9697162164, "tags": {"name": "丁冲村", "name:en": "Dingchong", "place": "village"}, "lon": 111.8035161, "lat": 32.63811, "center": null}, {"type": "node", "id": 10094951918, "tags": {"is_in:county": "邓州市", "name": "习营村", "place": "village"}, "lon": 111.8575454, "lat": 32.8491981, "center": null}, {"type": "node", "id": 11510446277, "tags": {"name": "莫李营村", "place": "village"}, "lon": 112.3416774, "lat": 32.7601571, "center": null}, {"type": "node", "id": 11510446278, "tags": {"name": "老院庄", "place": "village"}, "lon": 112.3526473, "lat": 32.7543964, "center": null}, {"type": "node", "id": 11613091093, "tags": {"name": "老梁庄", "place": "village"}, "lon": 112.3333065, "lat": 32.7679141, "center": null}, {"type": "node", "id": 11613091094, "tags": {"name": "北肜庄", "place": "village"}, "lon": 112.3424212, "lat": 32.7678641, "center": null}, {"type": "node", "id": 11618286934, "tags": {"name": "新柳步渠", "place": "village"}, "lon": 112.3762045, "lat": 32.7501853, "center": null}, {"type": "node", "id": 11618286938, "tags": {"name": "柳步渠", "place": "village"}, "lon": 112.3706869, "lat": 32.7543346, "center": null}, {"type": "node", "id": 11625811174, "tags": {"name": "周单庄", "place": "village"}, "lon": 112.3612498, "lat": 32.7517346, "center": null}, {"type": "node", "id": 11628632706, "tags": {"name": "蟒张营村", "place": "village"}, "lon": 112.326476, "lat": 32.7386639, "center": null}, {"type": "node", "id": 11628646906, "tags": {"name": "杨庄村", "place": "village"}, "lon": 112.3063667, "lat": 32.7323553, "center": null}, {"type": "node", "id": 11628657030, "tags": {"name": "南王村", "place": "village"}, "lon": 112.2983801, "lat": 32.7075608, "center": null}, {"type": "node", "id": 11628662913, "tags": {"name": "大王营村", "place": "village"}, "lon": 112.3069749, "lat": 32.7215092, "center": null}, {"type": "node", "id": 11636169640, "tags": {"name": "夏官营村", "place": "village"}, "lon": 112.4795055, "lat": 32.6808782, "center": null}, {"type": "node", "id": 11932664471, "tags": {"name": "赵家", "place": "hamlet"}, "lon": 111.7749322, "lat": 33.0750362, "center": null}, {"type": "node", "id": 12240801318, "tags": {"name": "岗堤村", "name:en": "Gangdi Village", "place": "village", "place:CN": "village"}, "lon": 111.8069934, "lat": 33.1015195, "center": null}, {"type": "node", "id": 12240801319, "tags": {"name": "郦城村", "name:en": "Zhicheng Village", "place": "village", "place:CN": "village"}, "lon": 111.8090709, "lat": 33.0974467, "center": null}, {"type": "node", "id": 13594615022, "tags": {"name": "前湾村", "place": "village"}, "lon": 111.9077892, "lat": 33.0443291, "center": null}, {"type": "node", "id": 13594615023, "tags": {"name": "刘湾", "place": "hamlet"}, "lon": 111.9034291, "lat": 33.0519552, "center": null}, {"type": "relation", "id": 9992498, "tags": {"admin_level": "8", "boundary": "administrative", "name": "杏山旅游管理区杏山街道", "name:zh": "杏山旅游管理区杏山街道", "type": "boundary"}, "lon": 111.6950538, "lat": 32.6277744, "center": {"lat": 32.6277744, "lon": 111.6950538}}]}